$GPTXT,01,01,02,u-blox ag - www.u-blox.com*50
$GPTXT,01,01,02,HW  UBX-G60xx  00040007 FFFFFFF9f*4B
$GPTXT,01,01,02,EXT CORE 7.03 (45970) Mar 17 2011 16:26:24*44
$GPTXT,01,01,02,ROM BASE 7.03 (45969) Mar 17 2011 16:18:34*57
$GPTXT,01,01,02,MOD LEA-6T-0*31
$GPTXT,01,01,02,ANTSUPERV=AC SD PDoS SR*20
$GPTXT,01,01,02,ANTSTATUS=OK*3B
$GPRMC,215838.00,A,4235.61546,S,14814.46238,E,0.424,80.50,111124,,,A*4C
$GPVTG,80.50,T,,M,0.424,N,0.785,K,A*08
$GPGGA,215838.00,4235.61546,S,14814.46238,E,1,09,1.03,-5.8,M,-7.7,M,,*71
$GPGSA,A,3,06,17,11,19,14,22,03,24,12,,,,1.87,1.03,1.57*06
$GPGSV,3,1,11,03,06,133,44,06,57,055,35,11,31,004,30,12,40,239,42*71
$GPGSV,3,2,11,14,13,073,40,17,34,125,45,19,63,134,42,22,33,083,39*75
$GPGSV,3,3,11,24,55,271,40,25,03,245,34,32,03,210,41*4B
$GPGLL,4235.61546,S,14814.46238,E,215838.00,A,A*72
$GPZDA,215838.00,11,11,2024,00,00*67
$GPRMC,215839.00,A,4235.61542,S,14814.46250,E,0.423,80.46,111124,,,A*47
$GPVTG,80.46,T,,M,0.423,N,0.783,K,A*0E
$GPGGA,215839.00,4235.61542,S,14814.46250,E,1,09,1.03,-5.7,M,-7.7,M,,*75
$GPGSA,A,3,06,17,11,19,14,22,03,24,12,,,,1.87,1.03,1.57*06
$GPGSV,3,1,11,03,06,133,40,06,57,055,37,11,31,004,36,12,40,239,30*74
$GPGSV,3,2,11,14,13,073,34,17,34,125,41,19,63,134,45,22,33,083,38*74
$GPGSV,3,3,11,24,55,271,37,25,03,245,33,32,03,210,42*4F
$GPGLL,4235.61542,S,14814.46250,E,215839.00,A,A*79
$GPZDA,215839.00,11,11,2024,00,00*66
$GPRMC,215840.00,A,4235.61541,S,14814.46263,E,0.422,80.44,111124,,,A*49
$GPVTG,80.44,T,,M,0.422,N,0.782,K,A*0C
$GPGGA,215840.00,4235.61541,S,14814.46263,E,1,09,1.03,-5.6,M,-7.7,M,,*79
$GPGSA,A,3,06,17,11,19,14,22,03,24,12,,,,1.87,1.03,1.57*06
$GPGSV,3,1,11,03,06,133,44,06,57,055,34,11,31,004,28,12,40,239,31*7D
$GPGSV,3,2,11,14,13,073,34,17,33,125,38,19,63,134,46,22,33,083,42*73
$GPGSV,3,3,11,24,55,271,39,25,03,245,33,32,03,210,39*4D
$GPGLL,4235.61541,S,14814.46263,E,215840.00,A,A*74
$GPZDA,215840.00,11,11,2024,00,00*68
$GPRMC,215841.00,A,4235.61538,S,14814.46277,E,0.422,80.43,111124,,,A*44
$GPVTG,80.43,T,,M,0.422,N,0.781,K,A*08
$GPGGA,215841.00,4235.61538,S,14814.46277,E,1,09,1.03,-5.6,M,-7.7,M,,*73
$GPGSA,A,3,06,17,11,19,14,22,03,24,12,,,,1.87,1.03,1.57*06
$GPGSV,3,1,11,03,06,133,40,06,57,055,40,11,31,004,28,12,40,239,32*79
$GPGSV,3,2,11,14,13,073,40,17,33,125,42,19,63,134,45,22,33,083,41*7D
$GPGSV,3,3,11,24,55,271,40,25,03,245,27,32,03,210,38*47
$GPGLL,4235.61538,S,14814.46277,E,215841.00,A,A*7E
$GPZDA,215841.00,11,11,2024,00,00*69

$GPRMC,215842.00,A,4235.61535,S,14814.46291,E,0.422,80.40,111124,,,A*41
$GPVTG,80.40,T,,M,0.422,N,0.781,K,A*0B
$GPGGA,215842.00,4235.61535,S,14814.46291,E,1,09,1.03,-5.6,M,-7.7,M,,*75
$GPGSA,A,3,06,17,11,19,14,22,03,24,12,,,,1.87,1.03,1.57*06
$GPGSV,3,1,11,03,06,133,37,06,57,055,38,11,31,004,28,12,40,239,34*70
$GPGSV,3,2,11,14,13,073,39,17,33,125,38,19,62,133,46,22,33,083,38*75
$GPGSV,3,3,11,24,55,271,38,25,03,245,33,32,03,210,42*40
$GPGLL,4235.61535,S,14814.46291,E,215842.00,A,A*78
$GPZDA,215842.00,11,11,2024,00,00*6A
$GPRMC,215843.00,A,4235.61530,S,14814.46306,E,0.422,80.34,111124,,,A*49
$GPVTG,80.34,T,,M,0.422,N,0.781,K,A*08
$GPGGA,215843.00,4235.61530,S,14814.46306,E,1,09,1.03,-5.5,M,-7.7,M,,*7D
$GPGSA,A,3,06,17,11,19,14,22,03,24,12,,,,1.87,1.03,1.57*06
$GPGSV,3,1,11,03,06,133,40,06,57,055,38,11,31,004,28,12,40,239,32*76
$GPGSV,3,2,11,14,13,073,40,17,33,125,35,19,62,133,42,22,33,083,35*7F
$GPGSV,3,3,11,24,55,271,38,25,03,245,35,32,03,210,44*40
$GPGLL,4235.61530,S,14814.46306,E,215843.00,A,A*73
$GPZDA,215843.00,11,11,2024,00,00*6B
$GPRMC,215844.00,A,4235.61525,S,14814.46321,E,0.421,80.25,111124,,,A*4C
$GPVTG,80.25,T,,M,0.421,N,0.780,K,A*0A
$GPGGA,215844.00,4235.61525,S,14814.46321,E,1,09,1.03,-5.3,M,-7.7,M,,*7D
$GPGSA,A,3,06,17,11,19,14,22,03,24,12,,,,1.87,1.03,1.57*06
$GPGSV,3,1,11,03,06,133,43,06,57,055,28,11,31,004,27,12,40,239,37*7E
$GPGSV,3,2,11,14,13,073,33,17,33,125,39,19,62,133,45,22,33,083,33*76
$GPGSV,3,3,11,24,55,271,30,25,03,245,31,32,03,210,42*4A
$GPGLL,4235.61525,S,14814.46321,E,215844.00,A,A*75
$GPZDA,215844.00,11,11,2024,00,00*6C
$GPRMC,215845.00,A,4235.61523,S,14814.46336,E,0.421,80.22,111124,,,A*4A
$GPVTG,80.22,T,,M,0.421,N,0.780,K,A*0D
$GPGGA,215845.00,4235.61523,S,14814.46336,E,1,09,1.03,-5.3,M,-7.7,M,,*7C
$GPGSA,A,3,06,17,11,19,14,22,03,24,12,,,,1.87,1.03,1.57*06
$GPGSV,3,1,11,03,06,133,41,06,57,055,33,11,31,004,31,12,40,239,40*71
$GPGSV,3,2,11,14,13,073,40,17,33,125,44,19,62,133,43,22,33,082,40*7B
$GPGSV,3,3,11,24,55,271,39,25,03,245,30,32,03,210,42*42
$GPGLL,4235.61523,S,14814.46336,E,215845.00,A,A*74
$GPZDA,215845.00,11,11,2024,00,00*6D
$GPRMC,215846.00,A,4235.61518,S,14814.46347,E,0.420,80.14,111124,,,A*43
$GPVTG,80.14,T,,M,0.420,N,0.778,K,A*0E
$GPGGA,215846.00,4235.61518,S,14814.46347,E,1,09,1.03,-5.2,M,-7.7,M,,*70
$GPGSA,A,3,06,17,11,19,14,22,03,24,12,,,,1.87,1.03,1.57*06
$GPGSV,3,1,12,03,06,133,41,06,57,055,36,11,31,004,31,12,40,239,39*79
$GPGSV,3,2,12,14,13,073,41,17,33,125,46,19,62,133,44,22,33,082,40*7C
$GPGSV,3,3,12,24,55,271,42,25,03,245,30,32,03,210,37,50,41,355,38*77
$GPGLL,4235.61518,S,14814.46347,E,215846.00,A,A*79
$GPZDA,215846.00,11,11,2024,00,00*6E
$GPRMC,215847.00,A,4235.61513,S,14814.46358,E,0.408,80.03,111124,,,A*4B
$GPVTG,80.03,T,,M,0.408,N,0.756,K,A*0E
$GPGGA,215847.00,4235.61513,S,14814.46358,E,1,09,1.03,-5.1,M,-7.7,M,,*77
$GPGSA,A,3,06,17,11,19,14,22,03,24,12,,,,1.87,1.03,1.57*06
$GPGSV,3,1,12,03,06,133,42,06,57,055,36,11,31,004,34,12,40,239,35*73
$GPGSV,3,2,12,14,13,073,34,17,33,125,43,19,62,133,47,22,33,082,26*78
$GPGSV,3,3,12,24,55,272,40,25,03,245,36,32,03,210,43,50,41,355,33*78
$GPGLL,4235.61513,S,14814.46358,E,215847.00,A,A*7D
$GPZDA,215847.00,11,11,2024,00,00*6F
$GPRMC,215848.00,A,4235.61511,S,14814.46370,E,0.409,79.40,111124,,,A*4C
$GPVTG,79.40,T,,M,0.409,N,0.757,K,A*0F
$GPGGA,215848.00,4235.61511,S,14814.46370,E,1,09,1.03,-5.1,M,-7.7,M,,*70
$GPGSA,A,3,06,17,11,19,14,22,03,24,12,,,,1.87,1.03,1.57*06
$GPGSV,3,1,12,03,06,133,33,06,57,055,38,11,31,004,34,12,40,239,39*77
$GPGSV,3,2,12,14,13,073,38,17,33,125,35,19,62,133,44,22,33,082,37*76
$GPGSV,3,3,12,24,55,272,42,25,03,245,32,32,03,210,44,50,41,355,31*7B
$GPGLL,4235.61511,S,14814.46370,E,215848.00,A,A*7A
$GPZDA,215848.00,11,11,2024,00,00*60
$GPRMC,215849.00,A,4235.61507,S,14814.46379,E,0.401,78.67,111124,,,A*4F
$GPVTG,78.67,T,,M,0.401,N,0.743,K,A*06
$GPGGA,215849.00,4235.61507,S,14814.46379,E,1,09,1.03,-5.0,M,-7.7,M,,*7E
$GPGSA,A,3,06,17,11,19,14,22,03,24,12,,,,1.87,1.03,1.57*06
$GPGSV,3,1,12,03,06,133,38,06,57,055,37,11,31,004,28,12,40,239,39*7E
$GPGSV,3,2,12,14,13,073,40,17,33,125,35,19,62,133,46,22,33,082,41*7A
$GPGSV,3,3,12,24,55,272,40,25,03,245,32,32,03,210,43,50,41,355,32*7D
$GPGLL,4235.61507,S,14814.46379,E,215849.00,A,A*75
$GPZDA,215849.00,11,11,2024,00,00*61
$GPRMC,215850.00,A,4235.61502,S,14814.46393,E,0.403,78.15,111124,,,A*41
$GPVTG,78.15,T,,M,0.403,N,0.747,K,A*05
$GPGGA,215850.00,4235.61502,S,14814.46393,E,1,09,1.03,-5.0,M,-7.7,M,,*77
$GPGSA,A,3,06,17,11,19,14,22,03,24,12,,,,1.87,1.03,1.57*06
$GPGSV,3,1,12,03,06,133,33,06,57,055,31,11,31,004,32,12,40,239,37*76
$GPGSV,3,2,12,14,13,073,37,17,33,125,32,19,62,133,46,22,33,082,32*79
$GPGSV,3,3,12,24,55,272,34,25,03,245,37,32,03,210,42,50,41,355,32*7A
$GPGLL,4235.61502,S,14814.46393,E,215850.00,A,A*7C
$GPZDA,215850.00,11,11,2024,00,00*69
$GPRMC,215851.00,A,4235.61501,S,14814.46405,E,0.404,78.27,111124,,,A*4D
$GPVTG,78.27,T,,M,0.404,N,0.749,K,A*0D
$GPGGA,215851.00,4235.61501,S,14814.46405,E,1,09,1.03,-5.1,M,-7.7,M,,*7C
$GPGSA,A,3,06,17,11,19,14,22,03,24,12,,,,1.87,1.03,1.57*06
$GPGSV,3,1,11,03,06,133,38,06,57,055,35,11,31,004,35,12,40,239,40*7D
$GPGSV,3,2,11,14,13,073,35,17,33,125,37,19,62,133,43,22,33,082,39*73
$GPGSV,3,3,11,24,55,272,39,25,03,245,33,32,03,210,39*4E
$GPGLL,4235.61501,S,14814.46405,E,215851.00,A,A*76
$GPZDA,215851.00,11,11,2024,00,00*68
$GPRMC,215852.00,A,4235.61494,S,14814.46415,E,0.395,77.72,111124,,,A*42
$GPVTG,77.72,T,,M,0.395,N,0.732,K,A*01
$GPGGA,215852.00,4235.61494,S,14814.46415,E,1,09,1.03,-5.0,M,-7.7,M,,*72
$GPGSA,A,3,06,17,11,19,14,22,03,24,12,,,,1.87,1.03,1.57*06
$GPGSV,3,1,11,03,06,133,35,06,57,055,39,11,31,004,25,12,40,239,29*72
$GPGSV,3,2,11,14,13,073,28,17,33,125,45,19,62,133,43,22,33,082,33*70
$GPGSV,3,3,11,24,55,272,39,25,03,245,30,32,03,210,39*4D
$GPGLL,4235.61494,S,14814.46415,E,215852.00,A,A*79
$GPZDA,215852.00,11,11,2024,00,00*6B
$GPRMC,215853.00,A,4235.61490,S,14814.46429,E,0.397,77.71,111124,,,A*49
$GPVTG,77.71,T,,M,0.397,N,0.735,K,A*07
$GPGGA,215853.00,4235.61490,S,14814.46429,E,1,09,1.03,-5.0,M,-7.7,M,,*78
$GPGSA,A,3,06,17,11,19,14,22,03,24,12,,,,1.87,1.03,1.57*06
$GPGSV,3,1,11,03,06,133,32,06,57,055,40,11,31,004,30,12,40,239,33*74
$GPGSV,3,2,11,14,13,073,42,17,33,125,42,19,62,133,44,22,33,082,40*78
$GPGSV,3,3,11,24,55,272,39,25,03,245,,32,03,210,37*40
$GPGLL,4235.61490,S,14814.46429,E,215853.00,A,A*73
$GPZDA,215853.00,11,11,2024,00,00*6A
$GPRMC,215854.00,A,4235.61488,S,14814.46446,E,0.404,78.01,111124,,,A*4B
$GPVTG,78.01,T,,M,0.404,N,0.749,K,A*09
$GPGGA,215854.00,4235.61488,S,14814.46446,E,1,09,1.03,-5.0,M,-7.7,M,,*7F
$GPGSA,A,3,06,17,11,19,14,22,03,24,12,,,,1.87,1.03,1.57*06
$GPGSV,3,1,11,03,06,133,34,06,57,055,35,11,31,004,34,12,40,239,42*72
$GPGSV,3,2,11,14,13,073,41,17,33,125,42,19,62,133,38,22,33,082,37*70
$GPGSV,3,3,11,24,55,272,38,25,03,245,36,32,03,210,47*43
$GPGLL,4235.61488,S,14814.46446,E,215854.00,A,A*74
$GPZDA,215854.00,11,11,2024,00,00*6D
$GPRMC,215855.00,A,4235.61487,S,14814.46458,E,0.400,78.26,111124,,,A*4B
$GPVTG,78.26,T,,M,0.400,N,0.740,K,A*01
$GPGGA,215855.00,4235.61487,S,14814.46458,E,1,09,1.03,-5.0,M,-7.7,M,,*7E
$GPGSA,A,3,06,17,11,19,14,22,03,24,12,,,,1.87,1.03,1.57*06
$GPGSV,3,1,11,03,06,133,25,06,57,055,30,11,31,004,30,12,40,239,39*7F
$GPGSV,3,2,11,14,13,073,32,17,33,125,37,19,62,133,47,22,33,082,35*7C
$GPGSV,3,3,11,24,55,272,29,25,03,245,34,32,03,210,39*48
$GPGLL,4235.61487,S,14814.46458,E,215855.00,A,A*75
$GPZDA,215855.00,11,11,2024,00,00*6C
RNG: TX = 11.0 RX = 12.0 time = 00.135 Sec.
$GPRMC,215856.00,A,4235.61487,S,14814.46471,E,0.398,78.57,111124,,,A*43
$GPVTG,78.57,T,,M,0.398,N,0.737,K,A*01
$GPGGA,215856.00,4235.61487,S,14814.46471,E,1,09,1.03,-4.9,M,-7.7,M,,*7E
$GPGSA,A,3,06,17,11,19,14,22,03,24,12,,,,1.87,1.03,1.57*06
$GPGSV,3,1,11,03,06,133,39,06,57,055,35,11,31,004,35,12,40,239,34*7F
$GPGSV,3,2,11,14,13,073,35,17,33,125,36,19,62,133,46,22,33,082,42*7B
$GPGSV,3,3,11,24,55,272,29,25,03,245,33,32,03,210,41*40
$GPGLL,4235.61487,S,14814.46471,E,215856.00,A,A*7D
$GPZDA,215856.00,11,11,2024,00,00*6F
$GPRMC,215857.00,A,4235.61484,S,14814.46481,E,0.391,78.74,111124,,,A*46
$GPVTG,78.74,T,,M,0.391,N,0.725,K,A*0A
$GPGGA,215857.00,4235.61484,S,14814.46481,E,1,09,1.03,-4.8,M,-7.7,M,,*72
$GPGSA,A,3,06,17,11,19,14,22,03,24,12,,,,1.87,1.03,1.57*06
$GPGSV,3,1,11,03,06,133,36,06,57,055,38,11,31,004,27,12,40,239,34*7E
$GPGSV,3,2,11,14,13,073,38,17,33,125,34,19,62,133,43,22,33,082,42*71
$GPGSV,3,3,11,24,55,272,38,25,03,245,28,32,03,210,45*4E
$GPGLL,4235.61484,S,14814.46481,E,215857.00,A,A*70
$GPZDA,215857.00,11,11,2024,00,00*6E
$GPRMC,215858.00,A,4235.61478,S,14814.46494,E,0.391,78.50,111124,,,A*48
$GPVTG,78.50,T,,M,0.391,N,0.724,K,A*0D
$GPGGA,215858.00,4235.61478,S,14814.46494,E,1,09,1.03,-4.7,M,-7.7,M,,*75
$GPGSA,A,3,06,17,11,19,14,22,03,24,12,,,,1.88,1.03,1.57*09
$GPGSV,3,1,11,03,06,133,37,06,57,055,32,11,31,004,34,12,40,239,31*72
$GPGSV,3,2,11,14,13,073,32,17,33,125,40,19,62,133,43,22,33,082,40*7A
$GPGSV,3,3,11,24,55,272,40,25,03,245,34,32,03,210,42*4B
$GPGLL,4235.61478,S,14814.46494,E,215858.00,A,A*78
$GPZDA,215858.00,11,11,2024,00,00*61
$GPRMC,215859.00,A,4235.61471,S,14814.46510,E,0.394,78.15,111124,,,A*49
$GPVTG,78.15,T,,M,0.394,N,0.730,K,A*0C
$GPGGA,215859.00,4235.61471,S,14814.46510,E,1,09,1.03,-4.7,M,-7.7,M,,*70
$GPGSA,A,3,06,17,11,19,14,22,03,24,12,,,,1.88,1.03,1.57*09
$GPGSV,3,1,11,03,06,133,35,06,57,055,40,11,31,004,30,12,40,239,40*77
$GPGSV,3,2,11,14,13,073,40,17,33,125,38,19,62,133,45,22,33,082,42*74
$GPGSV,3,3,11,24,55,272,34,25,03,245,33,32,03,210,39*43
$GPGLL,4235.61471,S,14814.46510,E,215859.00,A,A*7D
$GPZDA,215859.00,11,11,2024,00,00*60
$GPRMC,215900.00,A,4235.61466,S,14814.46517,E,0.386,77.67,111124,,,A*4C
$GPVTG,77.67,T,,M,0.386,N,0.716,K,A*01
$GPGGA,215900.00,4235.61466,S,14814.46517,E,1,09,1.03,-4.6,M,-7.7,M,,*7D
$GPGSA,A,3,06,17,11,19,14,22,03,24,12,,,,1.88,1.03,1.57*09
$GPGSV,3,1,11,03,06,133,35,06,57,055,35,11,31,004,34,12,40,239,41*70
$GPGSV,3,2,11,14,13,073,38,17,33,125,30,19,62,133,45,22,33,082,33*75
$GPGSV,3,3,11,24,55,272,42,25,03,245,28,32,03,210,41*47
$GPGLL,4235.61466,S,14814.46517,E,215900.00,A,A*71
$GPZDA,215900.00,11,11,2024,00,00*6D
$GPRMC,215901.00,A,4235.61459,S,14814.46526,E,0.381,77.08,111124,,,A*4D
$GPVTG,77.08,T,,M,0.381,N,0.705,K,A*0D
$GPGGA,215901.00,4235.61459,S,14814.46526,E,1,09,1.03,-4.4,M,-7.7,M,,*70
$GPGSA,A,3,06,17,11,19,14,22,03,24,12,,,,1.88,1.03,1.57*09
$GPGSV,3,1,11,03,06,133,40,06,57,055,37,11,31,004,36,12,40,239,33*77
$GPGSV,3,2,11,14,13,073,36,17,33,125,39,19,62,133,46,22,33,082,40*75
$GPGSV,3,3,11,24,55,272,39,25,03,245,33,32,03,210,41*41
$GPGLL,4235.61459,S,14814.46526,E,215901.00,A,A*7E
$GPZDA,215901.00,11,11,2024,00,00*6C
$GPRMC,215902.00,A,4235.61461,S,14814.46539,E,0.381,77.49,111124,,,A*4E
$GPVTG,77.49,T,,M,0.381,N,0.705,K,A*08
$GPGGA,215902.00,4235.61461,S,14814.46539,E,1,09,1.03,-4.7,M,-7.7,M,,*75
$GPGSA,A,3,06,17,11,19,14,22,03,24,12,,,,1.88,1.03,1.57*09
$GPGSV,3,1,11,03,06,133,45,06,57,055,40,11,31,004,29,12,40,239,37*78
$GPGSV,3,2,11,14,13,073,41,17,33,125,46,19,62,133,45,22,33,082,42*7C
$GPGSV,3,3,11,24,55,272,37,25,03,245,31,32,03,210,46*4A
$GPGLL,4235.61461,S,14814.46539,E,215902.00,A,A*78
$GPZDA,215902.00,11,11,2024,00,00*6F
RNG: TX = 11.0 RX = 12.0 time = 00.134 Sec.
$GPRMC,215903.00,A,4235.61457,S,14814.46554,E,0.384,77.73,111124,,,A*4D
$GPVTG,77.73,T,,M,0.384,N,0.712,K,A*02
$GPGGA,215903.00,4235.61457,S,14814.46554,E,1,09,1.03,-4.7,M,-7.7,M,,*7A
$GPGSA,A,3,06,17,11,19,14,22,03,24,12,,,,1.88,1.03,1.57*09
$GPGSV,3,1,11,03,06,133,38,06,57,055,34,11,31,004,23,12,40,239,42*79
$GPGSV,3,2,11,14,13,073,39,17,33,125,30,19,62,133,44,22,33,082,36*70
$GPGSV,3,3,11,24,55,272,38,25,03,245,30,32,03,210,43*41
$GPGLL,4235.61457,S,14814.46554,E,215903.00,A,A*77
$GPZDA,215903.00,11,11,2024,00,00*6E
$GPRMC,215904.00,A,4235.61455,S,14814.46568,E,0.386,77.84,111124,,,A*4D
$GPVTG,77.84,T,,M,0.386,N,0.715,K,A*0F
$GPGGA,215904.00,4235.61455,S,14814.46568,E,1,09,1.03,-4.7,M,-7.7,M,,*70
$GPGSA,A,3,06,17,11,19,14,22,03,24,12,,,,1.88,1.03,1.57*09
$GPGSV,3,1,11,03,06,133,32,06,57,055,37,11,31,004,34,12,40,239,42*76
$GPGSV,3,2,11,14,13,073,33,17,33,125,34,19,62,133,40,22,33,082,37*7B
$GPGSV,3,3,11,24,55,272,22,25,03,245,30,32,03,210,42*4B
$GPGLL,4235.61455,S,14814.46568,E,215904.00,A,A*7D
$GPZDA,215904.00,11,11,2024,00,00*69
$GPRMC,215905.00,A,4235.61452,S,14814.46580,E,0.383,77.95,111124,,,A*48
$GPVTG,77.95,T,,M,0.383,N,0.710,K,A*0F
$GPGGA,215905.00,4235.61452,S,14814.46580,E,1,09,1.03,-4.7,M,-7.7,M,,*70
$GPGSA,A,3,06,17,11,19,14,22,03,24,12,,,,1.88,1.03,1.57*09
$GPGSV,3,1,11,03,06,133,39,06,57,055,38,11,31,004,23,12,40,239,43*75
$GPGSV,3,2,11,14,13,073,34,17,33,125,33,19,62,133,44,22,33,082,32*7A
$GPGSV,3,3,11,24,55,272,33,25,03,245,31,32,03,210,42*4A
$GPGLL,4235.61452,S,14814.46580,E,215905.00,A,A*7D
$GPZDA,215905.00,11,11,2024,00,00*68
$GPRMC,215906.00,A,4235.61450,S,14814.46591,E,0.381,78.18,111124,,,A*41
$GPVTG,78.18,T,,M,0.381,N,0.706,K,A*00
$GPGGA,215906.00,4235.61450,S,14814.46591,E,1,09,1.03,-4.7,M,-7.7,M,,*71
$GPGSA,A,3,06,17,11,19,14,22,03,24,12,,,,1.88,1.03,1.57*09
$GPGSV,3,1,11,03,06,133,42,06,57,055,38,11,31,004,30,12,40,239,40*78
$GPGSV,3,2,11,14,13,073,34,17,33,125,36,19,62,133,44,22,33,082,36*7B
$GPGSV,3,3,11,24,55,272,36,25,03,245,33,32,03,210,40*4F
$GPGLL,4235.61450,S,14814.46591,E,215906.00,A,A*7C
$GPZDA,215906.00,11,11,2024,00,00*6B
$GPRMC,215907.00,A,4235.61447,S,14814.46603,E,0.380,78.21,111124,,,A*45
$GPVTG,78.21,T,,M,0.380,N,0.703,K,A*0E
$GPGGA,215907.00,4235.61447,S,14814.46603,E,1,09,1.03,-4.6,M,-7.7,M,,*7F
$GPGSA,A,3,06,17,11,19,14,22,03,24,12,,,,1.88,1.03,1.57*09
$GPGSV,3,1,11,03,06,133,36,06,57,055,28,11,31,004,34,12,40,239,31*78
$GPGSV,3,2,11,14,13,073,35,17,33,125,34,19,62,133,45,22,33,082,34*7B
$GPGSV,3,3,11,24,55,272,34,25,03,245,29,32,03,210,40*46
$GPGLL,4235.61447,S,14814.46603,E,215907.00,A,A*73
$GPZDA,215907.00,11,11,2024,00,00*6A
$GPRMC,215908.00,A,4235.61445,S,14814.46617,E,0.382,78.38,111124,,,A*47
$GPVTG,78.38,T,,M,0.382,N,0.707,K,A*00
$GPGGA,215908.00,4235.61445,S,14814.46617,E,1,09,1.14,-4.6,M,-7.7,M,,*71
$GPGSA,A,3,06,17,11,19,14,22,03,24,12,,,,2.34,1.14,2.05*0F
$GPGSV,3,1,11,03,06,133,25,06,57,055,38,11,31,004,35,12,40,239,42*7E
$GPGSV,3,2,11,14,13,073,26,17,33,125,44,19,62,133,43,22,33,082,41*7A
$GPGSV,3,3,11,24,55,272,40,25,03,245,32,32,03,210,44*4B
$GPGLL,4235.61445,S,14814.46617,E,215908.00,A,A*7B
$GPZDA,215908.00,11,11,2024,00,00*65
$GPRMC,215909.00,A,4235.61443,S,14814.46628,E,0.378,78.47,111124,,,A*41
$GPVTG,78.47,T,,M,0.378,N,0.700,K,A*0A
$GPGGA,215909.00,4235.61443,S,14814.46628,E,1,09,1.03,-4.6,M,-7.7,M,,*7C
$GPGSA,A,3,06,17,11,19,14,22,03,24,12,,,,1.88,1.03,1.57*09
$GPGSV,3,1,11,03,06,133,40,06,57,055,38,11,31,004,26,12,40,239,41*7C
$GPGSV,3,2,11,14,13,073,34,17,33,125,35,19,62,133,47,22,33,082,41*7B
$GPGSV,3,3,11,24,55,272,34,25,03,245,37,32,03,210,43*4A
$GPGLL,4235.61443,S,14814.46628,E,215909.00,A,A*70
$GPZDA,215909.00,11,11,2024,00,00*64
$GPRMC,215910.00,A,4235.61444,S,14814.46636,E,0.373,78.66,111124,,,A*49
$GPVTG,78.66,T,,M,0.373,N,0.690,K,A*0A
$GPGGA,215910.00,4235.61444,S,14814.46636,E,1,09,1.03,-4.5,M,-7.7,M,,*7F
$GPGSA,A,3,06,17,11,19,14,22,03,24,12,,,,1.88,1.03,1.57*09
$GPGSV,3,1,11,03,06,133,29,06,57,055,27,11,31,004,31,12,40,239,30*7D
$GPGSV,3,2,11,14,13,073,40,17,33,125,36,19,62,133,48,22,33,082,38*7A
$GPGSV,3,3,11,24,55,272,36,25,03,245,34,32,03,210,40*48
$GPGLL,4235.61444,S,14814.46636,E,215910.00,A,A*70
$GPZDA,215910.00,11,11,2024,00,00*6C
$GPRMC,215911.00,A,4235.61443,S,14814.46646,E,0.369,78.89,111124,,,A*42
$GPVTG,78.89,T,,M,0.369,N,0.684,K,A*05
$GPGGA,215911.00,4235.61443,S,14814.46646,E,1,09,1.03,-4.5,M,-7.7,M,,*7E
$GPGSA,A,3,06,17,11,19,14,22,03,24,12,,,,1.88,1.03,1.57*09
$GPGSV,3,1,11,03,06,133,36,06,57,055,39,11,31,004,31,12,40,239,34*78
$GPGSV,3,2,11,14,13,073,34,17,33,125,40,19,62,133,45,22,33,082,42*78
$GPGSV,3,3,11,24,55,272,36,25,03,245,34,32,03,210,40*48
$GPGLL,4235.61443,S,14814.46646,E,215911.00,A,A*71
$GPZDA,215911.00,11,11,2024,00,00*6D
$GPRMC,215912.00,A,4235.61439,S,14814.46653,E,0.365,78.71,111124,,,A*43
$GPVTG,78.71,T,,M,0.365,N,0.677,K,A*02
$GPGGA,215912.00,4235.61439,S,14814.46653,E,1,09,1.03,-4.5,M,-7.7,M,,*74
$GPGSA,A,3,06,17,11,19,14,22,03,24,12,,,,1.88,1.03,1.57*09
$GPGSV,3,1,11,03,06,133,33,06,57,055,35,11,31,004,34,12,40,239,33*73
$GPGSV,3,2,11,14,13,073,41,17,33,125,40,19,62,133,45,22,33,082,40*78
$GPGSV,3,3,11,24,55,272,37,25,03,245,34,32,03,210,42*4B
$GPGLL,4235.61439,S,14814.46653,E,215912.00,A,A*7B
$GPZDA,215912.00,11,11,2024,00,00*6E
$GPRMC,215913.00,A,4235.61434,S,14814.46661,E,0.362,78.37,111124,,,A*4B
$GPVTG,78.37,T,,M,0.362,N,0.670,K,A*00
$GPGGA,215913.00,4235.61434,S,14814.46661,E,1,08,1.07,-4.5,M,-7.7,M,,*7C
$GPGSA,A,3,06,17,11,19,22,03,24,12,,,,,2.03,1.07,1.73*0E
$GPGSV,3,1,11,03,06,133,39,06,57,055,37,11,31,004,27,12,40,239,42*7F
$GPGSV,3,2,11,14,13,073,,17,33,125,31,19,62,133,46,22,33,082,29*77
$GPGSV,3,3,11,24,55,272,37,25,03,245,34,32,03,210,43*4A
$GPGLL,4235.61434,S,14814.46661,E,215913.00,A,A*76
$GPZDA,215913.00,11,11,2024,00,00*6F
$GPRMC,215914.00,A,4235.61426,S,14814.46668,E,0.358,77.83,111124,,,A*4F
$GPVTG,77.83,T,,M,0.358,N,0.663,K,A*0B
$GPGGA,215914.00,4235.61426,S,14814.46668,E,1,09,1.03,-4.5,M,-7.7,M,,*74
$GPGSA,A,3,06,17,11,19,14,22,03,24,12,,,,1.88,1.03,1.57*09
$GPGSV,3,1,11,03,06,133,45,06,57,055,39,11,31,004,31,12,40,239,40*7F
$GPGSV,3,2,11,14,13,073,39,17,33,125,38,19,62,133,40,22,33,082,40*7D
$GPGSV,3,3,11,24,55,272,37,25,03,245,35,32,03,210,43*4B
$GPGLL,4235.61426,S,14814.46668,E,215914.00,A,A*7B
$GPZDA,215914.00,11,11,2024,00,00*68
$GPRMC,215915.00,A,4235.61426,S,14814.46678,E,0.357,77.70,111124,,,A*4C
$GPVTG,77.70,T,,M,0.357,N,0.661,K,A*0A
$GPGGA,215915.00,4235.61426,S,14814.46678,E,1,09,1.03,-4.7,M,-7.7,M,,*76
$GPGSA,A,3,06,17,11,19,14,22,03,24,12,,,,1.88,1.03,1.57*09
$GPGSV,3,1,11,03,06,133,46,06,57,055,36,11,31,004,32,12,40,239,36*71
$GPGSV,3,2,11,14,13,073,39,17,33,125,34,19,62,133,46,22,33,082,42*75
$GPGSV,3,3,11,24,55,272,39,25,03,245,35,32,03,210,39*48
$GPGLL,4235.61426,S,14814.46678,E,215915.00,A,A*7B
$GPZDA,215915.00,11,11,2024,00,00*69
$GPRMC,215916.00,A,4235.61423,S,14814.46690,E,0.357,77.61,111124,,,A*4C
$GPVTG,77.61,T,,M,0.357,N,0.662,K,A*09
$GPGGA,215916.00,4235.61423,S,14814.46690,E,1,09,1.03,-4.7,M,-7.7,M,,*76
$GPGSA,A,3,06,17,11,19,14,22,03,24,12,,,,1.88,1.03,1.57*09
$GPGSV,3,1,11,03,06,133,28,06,57,055,36,11,31,004,27,12,40,239,41*7D
$GPGSV,3,2,11,14,13,073,25,17,33,125,38,19,62,133,44,22,33,082,38*7B
$GPGSV,3,3,11,24,55,272,38,25,03,245,35,32,03,210,42*45
$GPGLL,4235.61423,S,14814.46690,E,215916.00,A,A*7B
$GPZDA,215916.00,11,11,2024,00,00*6A
$GPRMC,215917.00,A,4235.61424,S,14814.46698,E,0.354,77.81,111124,,,A*4F
$GPVTG,77.81,T,,M,0.354,N,0.655,K,A*00
$GPGGA,215917.00,4235.61424,S,14814.46698,E,1,09,1.03,-4.7,M,-7.7,M,,*78
$GPGSA,A,3,06,17,11,19,14,22,03,24,12,,,,1.88,1.03,1.57*09
$GPGSV,3,1,11,03,06,133,41,06,57,055,37,11,31,004,35,12,40,239,43*72
$GPGSV,3,2,11,14,13,073,30,17,33,125,35,19,62,133,45,22,33,082,34*7F
$GPGSV,3,3,11,24,55,272,39,25,03,245,35,32,03,210,43*45
$GPGLL,4235.61424,S,14814.46698,E,215917.00,A,A*75
$GPZDA,215917.00,11,11,2024,00,00*6B
$GPRMC,215918.00,A,4235.61423,S,14814.46709,E,0.353,78.02,111124,,,A*4D
$GPVTG,78.02,T,,M,0.353,N,0.653,K,A*05
$GPGGA,215918.00,4235.61423,S,14814.46709,E,1,09,1.03,-4.7,M,-7.7,M,,*79
$GPGSA,A,3,06,17,11,19,14,22,03,24,12,,,,1.88,1.03,1.57*09
$GPGSV,3,1,11,03,06,133,37,06,57,055,37,11,31,004,34,12,40,239,24*73
$GPGSV,3,2,11,14,13,073,40,17,33,125,41,19,62,133,48,22,33,082,36*74
$GPGSV,3,3,11,24,55,272,37,25,03,245,35,32,03,210,40*48
$GPGLL,4235.61423,S,14814.46709,E,215918.00,A,A*74
$GPZDA,215918.00,11,11,2024,00,00*64
$GPRMC,215919.00,A,4235.61422,S,14814.46721,E,0.352,78.32,111124,,,A*45
$GPVTG,78.32,T,,M,0.352,N,0.652,K,A*06
$GPGGA,215919.00,4235.61422,S,14814.46721,E,1,09,1.03,-4.7,M,-7.7,M,,*73
$GPGSA,A,3,06,17,11,19,14,22,03,24,12,,,,1.88,1.03,1.57*09
$GPGSV,3,1,11,03,06,133,37,06,57,055,37,11,31,004,23,12,40,239,34*74
$GPGSV,3,2,11,14,13,073,41,17,33,125,39,19,62,133,46,22,33,082,40*75
$GPGSV,3,3,11,24,55,272,39,25,03,245,32,32,03,210,30*46
$GPGLL,4235.61422,S,14814.46721,E,215919.00,A,A*7E
$GPZDA,215919.00,11,11,2024,00,00*65
$GPRMC,215920.00,A,4235.61420,S,14814.46734,E,0.353,78.54,111124,,,A*48
$GPVTG,78.54,T,,M,0.353,N,0.653,K,A*06
$GPGGA,215920.00,4235.61420,S,14814.46734,E,1,09,1.03,-4.7,M,-7.7,M,,*7F
$GPGSA,A,3,06,17,11,19,14,22,03,24,12,,,,1.88,1.03,1.57*09
$GPGSV,3,1,11,03,06,133,34,06,57,055,37,11,31,004,22,12,40,239,39*7B
$GPGSV,3,2,11,14,13,073,23,17,33,125,40,19,62,133,44,22,33,082,38*72
$GPGSV,3,3,11,24,55,272,39,25,03,245,32,32,03,210,41*40
$GPGLL,4235.61420,S,14814.46734,E,215920.00,A,A*72
$GPZDA,215920.00,11,11,2024,00,00*6F
$GPRMC,215921.00,A,4235.61417,S,14814.46743,E,0.350,78.55,111124,,,A*4F
$GPVTG,78.55,T,,M,0.350,N,0.649,K,A*0F
$GPGGA,215921.00,4235.61417,S,14814.46743,E,1,09,1.03,-4.6,M,-7.7,M,,*7B
$GPGSA,A,3,06,17,11,19,14,22,03,24,12,,,,1.88,1.03,1.57*09
$GPGSV,3,1,11,03,06,133,39,06,57,055,37,11,31,004,33,12,40,239,42*7A
$GPGSV,3,2,11,14,13,073,25,17,33,125,40,19,62,133,42,22,33,082,30*7A
$GPGSV,3,3,11,24,55,272,39,25,03,245,31,32,03,210,43*41
$GPGLL,4235.61417,S,14814.46743,E,215921.00,A,A*77
$GPZDA,215921.00,11,11,2024,00,00*6E
$GPRMC,215922.00,A,4235.61415,S,14814.46749,E,0.344,78.48,111124,,,A*4D
$GPVTG,78.48,T,,M,0.344,N,0.637,K,A*0F
$GPGGA,215922.00,4235.61415,S,14814.46749,E,1,09,1.03,-4.5,M,-7.7,M,,*73
$GPGSA,A,3,06,17,11,19,14,22,03,24,12,,,,1.88,1.03,1.57*09
$GPGSV,3,1,11,03,06,133,34,06,57,055,35,11,31,004,34,12,40,239,37*70
$GPGSV,3,2,11,14,13,073,39,17,33,125,38,19,62,133,42,22,33,082,40*7F
$GPGSV,3,3,11,24,55,272,40,25,03,245,35,32,03,210,40*48
$GPGLL,4235.61415,S,14814.46749,E,215922.00,A,A*7C
$GPZDA,215922.00,11,11,2024,00,00*6D
$GPRMC,215923.00,A,4235.61413,S,14814.46757,E,0.342,78.45,111124,,,A*4E
$GPVTG,78.45,T,,M,0.342,N,0.633,K,A*00
$GPGGA,215923.00,4235.61413,S,14814.46757,E,1,09,1.03,-4.6,M,-7.7,M,,*78
$GPGSA,A,3,06,17,11,19,14,22,03,24,12,,,,1.88,1.03,1.57*09
$GPGSV,3,1,11,03,06,133,34,06,57,055,40,11,31,004,33,12,40,239,37*75
$GPGSV,3,2,11,14,13,073,39,17,33,125,33,19,62,133,46,22,33,082,44*74
$GPGSV,3,3,11,24,55,272,38,25,03,245,34,32,03,210,38*49
$GPGLL,4235.61413,S,14814.46757,E,215923.00,A,A*74
$GPZDA,215923.00,11,11,2024,00,00*6C
$GPRMC,215924.00,A,4235.61409,S,14814.46766,E,0.340,78.27,111124,,,A*46
$GPVTG,78.27,T,,M,0.340,N,0.629,K,A*0D
$GPGGA,215924.00,4235.61409,S,14814.46766,E,1,09,1.03,-4.5,M,-7.7,M,,*75
$GPGSA,A,3,06,17,11,19,14,22,03,24,12,,,,1.88,1.03,1.57*09
$GPGSV,3,1,11,03,06,133,31,06,57,055,29,11,31,004,32,12,40,239,34*7D
$GPGSV,3,2,11,14,13,073,39,17,33,125,39,19,62,133,48,22,33,082,34*77
$GPGSV,3,3,11,24,55,272,37,25,03,245,37,32,03,210,40*4A
$GPGLL,4235.61409,S,14814.46766,E,215924.00,A,A*7A
$GPZDA,215924.00,11,11,2024,00,00*6B
$GPRMC,215925.00,A,4235.61404,S,14814.46773,E,0.337,77.88,111124,,,A*44
$GPVTG,77.88,T,,M,0.337,N,0.624,K,A*0A
$GPGGA,215925.00,4235.61404,S,14814.46773,E,1,09,1.03,-4.5,M,-7.7,M,,*7D
$GPGSA,A,3,06,17,11,19,14,22,03,24,12,,,,1.88,1.03,1.57*09
$GPGSV,3,1,11,03,06,133,43,06,57,055,36,11,31,004,32,12,40,239,37*75
$GPGSV,3,2,11,14,13,073,37,17,33,125,43,19,62,133,46,22,33,082,36*78
$GPGSV,3,3,11,24,55,272,32,25,03,245,37,32,03,210,38*40
$GPGLL,4235.61404,S,14814.46773,E,215925.00,A,A*72
$GPZDA,215925.00,11,11,2024,00,00*6A
$GPRMC,215926.00,A,4235.61400,S,14814.46780,E,0.334,77.53,111124,,,A*4A
$GPVTG,77.53,T,,M,0.334,N,0.619,K,A*01
$GPGGA,215926.00,4235.61400,S,14814.46780,E,1,09,1.03,-4.4,M,-7.7,M,,*77
$GPGSA,A,3,06,17,11,19,14,22,03,24,12,,,,1.88,1.03,1.57*09
$GPGSV,3,1,11,03,06,133,44,06,57,055,33,11,31,004,29,12,40,239,37*7D
$GPGSV,3,2,11,14,13,073,37,17,33,125,37,19,62,133,46,22,33,082,37*7A
$GPGSV,3,3,11,24,55,272,38,25,03,245,36,32,03,210,42*46
$GPGLL,4235.61400,S,14814.46780,E,215926.00,A,A*79
$GPZDA,215926.00,11,11,2024,00,00*69
$GPRMC,215927.00,A,4235.61397,S,14814.46790,E,0.334,77.29,111124,,,A*4E
$GPVTG,77.29,T,,M,0.334,N,0.618,K,A*0D
$GPGGA,215927.00,4235.61397,S,14814.46790,E,1,09,1.03,-4.4,M,-7.7,M,,*7E
$GPGSA,A,3,06,17,11,19,14,22,03,24,12,,,,1.88,1.03,1.57*09
$GPGSV,3,1,11,03,06,133,31,06,57,055,33,11,31,004,31,12,40,239,32*73
$GPGSV,3,2,11,14,13,073,23,17,33,125,35,19,62,133,48,22,33,082,37*73
$GPGSV,3,3,11,24,55,272,35,25,03,245,32,32,03,210,39*43
$GPGLL,4235.61397,S,14814.46790,E,215927.00,A,A*70
$GPZDA,215927.00,11,11,2024,00,00*68
$GPRMC,215928.00,A,4235.61394,S,14814.46799,E,0.332,77.11,111124,,,A*46
$GPVTG,77.11,T,,M,0.332,N,0.616,K,A*0E
$GPGGA,215928.00,4235.61394,S,14814.46799,E,1,09,1.03,-4.4,M,-7.7,M,,*7B
$GPGSA,A,3,06,17,11,19,14,22,03,24,12,,,,1.88,1.03,1.57*09
$GPGSV,3,1,12,03,06,133,29,06,57,055,33,11,31,004,29,12,40,239,32*70
$GPGSV,3,2,12,14,13,073,38,17,33,125,38,19,62,133,48,22,33,082,34*74
$GPGSV,3,3,12,24,55,272,39,25,03,245,32,32,03,210,36,50,41,355,34*77
$GPGLL,4235.61394,S,14814.46799,E,215928.00,A,A*75
$GPZDA,215928.00,11,11,2024,00,00*67
$GPRMC,215929.00,A,4235.61390,S,14814.46809,E,0.331,76.90,111124,,,A*4E
$GPVTG,76.90,T,,M,0.331,N,0.614,K,A*07
$GPGGA,215929.00,4235.61390,S,14814.46809,E,1,09,1.03,-4.4,M,-7.7,M,,*78
$GPGSA,A,3,06,17,11,19,14,22,03,24,12,,,,1.88,1.03,1.57*09
$GPGSV,3,1,12,03,06,133,41,06,57,055,37,11,31,004,33,12,40,239,38*7B
$GPGSV,3,2,12,14,13,073,39,17,33,125,42,19,62,133,44,22,33,082,39*79
$GPGSV,3,3,12,24,55,272,31,25,03,245,33,32,03,210,43,50,41,355,28*71
$GPGLL,4235.61390,S,14814.46809,E,215929.00,A,A*76
$GPZDA,215929.00,11,11,2024,00,00*66
$GPRMC,215930.00,A,4235.61386,S,14814.46818,E,0.331,76.58,111124,,,A*45
$GPVTG,76.58,T,,M,0.331,N,0.612,K,A*05
$GPGGA,215930.00,4235.61386,S,14814.46818,E,1,09,1.03,-4.5,M,-7.7,M,,*76
$GPGSA,A,3,06,17,11,19,14,22,03,24,12,,,,1.88,1.03,1.57*09
$GPGSV,3,1,12,03,06,133,41,06,57,055,39,11,31,004,29,12,40,239,36*70
$GPGSV,3,2,12,14,13,073,39,17,33,125,40,19,62,133,44,22,33,082,34*76
$GPGSV,3,3,12,24,55,272,35,25,03,245,32,32,03,210,44,50,41,355,28*73
$GPGLL,4235.61386,S,14814.46818,E,215930.00,A,A*79
$GPZDA,215930.00,11,11,2024,00,00*6E
$GPRMC,215931.00,A,4235.61384,S,14814.46825,E,0.329,76.47,111124,,,A*4F
$GPVTG,76.47,T,,M,0.329,N,0.610,K,A*00
$GPGGA,215931.00,4235.61384,S,14814.46825,E,1,09,1.03,-4.6,M,-7.7,M,,*78
$GPGSA,A,3,06,17,11,19,14,22,03,24,12,,,,1.88,1.03,1.57*09
$GPGSV,3,1,12,03,06,133,37,06,57,055,37,11,31,004,33,12,40,239,39*7B
$GPGSV,3,2,12,14,13,073,36,17,33,125,29,19,62,133,45,22,33,082,37*74
$GPGSV,3,3,12,24,55,272,37,25,03,245,32,32,03,210,41,50,41,355,28*74
$GPGLL,4235.61384,S,14814.46825,E,215931.00,A,A*74
$GPZDA,215931.00,11,11,2024,00,00*6F
$GPRMC,215932.00,A,4235.61383,S,14814.46837,E,0.329,76.55,111124,,,A*4B
$GPVTG,76.55,T,,M,0.329,N,0.610,K,A*03
$GPGGA,215932.00,4235.61383,S,14814.46837,E,1,09,1.03,-4.7,M,-7.7,M,,*7E
$GPGSA,A,3,06,17,11,19,14,22,03,24,12,,,,1.88,1.03,1.57*09
$GPGSV,3,1,12,03,06,133,31,06,57,055,35,11,31,004,31,12,40,239,35*71
$GPGSV,3,2,12,14,13,073,37,17,33,125,27,19,62,133,42,22,33,082,34*7F
$GPGSV,3,3,12,24,55,272,35,25,03,245,31,32,03,210,40,50,41,355,29*75
$GPGLL,4235.61383,S,14814.46837,E,215932.00,A,A*73
$GPZDA,215932.00,11,11,2024,00,00*6C
$GPRMC,215933.00,A,4235.61381,S,14814.46837,E,0.323,76.57,111124,,,A*40
$GPVTG,76.57,T,,M,0.323,N,0.599,K,A*09
$GPGGA,215933.00,4235.61381,S,14814.46837,E,1,09,1.03,-4.7,M,-7.7,M,,*7D
$GPGSA,A,3,06,17,11,19,14,22,03,24,12,,,,1.88,1.03,1.57*09
$GPGSV,3,1,12,03,06,133,39,06,57,055,37,11,31,004,26,12,40,239,35*7D
$GPGSV,3,2,12,14,13,073,23,17,33,125,39,19,62,133,48,22,33,082,35*7E
$GPGSV,3,3,12,24,55,272,40,25,03,245,32,32,03,210,41,50,41,355,29*75
$GPGLL,4235.61381,S,14814.46837,E,215933.00,A,A*70
$GPZDA,215933.00,11,11,2024,00,00*6D
$GPRMC,215934.00,A,4235.61382,S,14814.46843,E,0.320,76.76,111124,,,A*47
$GPVTG,76.76,T,,M,0.320,N,0.593,K,A*03
$GPGGA,215934.00,4235.61382,S,14814.46843,E,1,09,1.03,-4.7,M,-7.7,M,,*7A
$GPGSA,A,3,06,17,11,19,14,22,03,24,12,,,,1.88,1.03,1.57*09
$GPGSV,3,1,12,03,06,133,42,06,57,055,38,11,31,004,35,12,40,239,28*70
$GPGSV,3,2,12,14,13,073,42,17,33,125,44,19,62,133,45,22,33,082,42*7E
$GPGSV,3,3,12,24,55,272,37,25,03,245,28,32,03,210,33,50,41,355,29*7B
$GPGLL,4235.61382,S,14814.46843,E,215934.00,A,A*77
$GPZDA,215934.00,11,11,2024,00,00*6A
$GPRMC,215935.00,A,4235.61384,S,14814.46852,E,0.319,77.13,111124,,,A*48
$GPVTG,77.13,T,,M,0.319,N,0.590,K,A*08
$GPGGA,215935.00,4235.61384,S,14814.46852,E,1,09,1.03,-4.7,M,-7.7,M,,*7D
$GPGSA,A,3,06,17,11,19,14,22,03,24,12,,,,1.88,1.03,1.57*09
$GPGSV,3,1,12,03,06,133,37,06,57,055,38,11,31,004,27,12,40,239,27*7E
$GPGSV,3,2,12,14,13,073,43,17,33,125,42,19,62,133,46,22,33,082,41*79
$GPGSV,3,3,12,24,55,272,38,25,03,245,28,32,03,210,35,50,41,355,27*7C
$GPGLL,4235.61384,S,14814.46852,E,215935.00,A,A*70
$GPZDA,215935.00,11,11,2024,00,00*6B
$GPRMC,215936.00,A,4235.61380,S,14814.46861,E,0.318,77.27,111124,,,A*49
$GPVTG,77.27,T,,M,0.318,N,0.589,K,A*06
$GPGGA,215936.00,4235.61380,S,14814.46861,E,1,09,1.03,-4.7,M,-7.7,M,,*7A
$GPGSA,A,3,06,17,11,19,14,22,03,24,12,,,,1.88,1.03,1.57*09
$GPGSV,3,1,12,03,06,133,30,06,57,055,33,11,31,004,31,12,40,239,27*75
$GPGSV,3,2,12,14,13,073,31,17,33,125,41,19,62,133,45,22,33,082,32*78
$GPGSV,3,3,12,24,55,272,38,25,03,245,35,32,03,210,34,50,41,355,29*7F
$GPGLL,4235.61380,S,14814.46861,E,215936.00,A,A*77
$GPZDA,215936.00,11,11,2024,00,00*68
$GPRMC,215937.00,A,4235.61377,S,14814.46870,E,0.317,77.27,111124,,,A*4F
$GPVTG,77.27,T,,M,0.317,N,0.587,K,A*07
$GPGGA,215937.00,4235.61377,S,14814.46870,E,1,09,1.03,-4.6,M,-7.7,M,,*72
$GPGSA,A,3,06,17,11,19,14,22,03,24,12,,,,1.88,1.03,1.57*09
$GPGSV,3,1,12,03,06,134,34,06,57,055,38,11,31,004,26,12,40,239,28*74
$GPGSV,3,2,12,14,13,073,41,17,33,125,29,19,62,133,44,22,33,082,26*75
$GPGSV,3,3,12,24,55,272,37,25,03,245,31,32,03,210,35,50,41,355,27*7B
$GPGLL,4235.61377,S,14814.46870,E,215937.00,A,A*7E
$GPZDA,215937.00,11,11,2024,00,00*69
$GPRMC,215938.00,A,4235.61373,S,14814.46875,E,0.314,77.19,111124,,,A*4F
$GPVTG,77.19,T,,M,0.314,N,0.582,K,A*0C
$GPGGA,215938.00,4235.61373,S,14814.46875,E,1,09,1.03,-4.5,M,-7.7,M,,*7F
$GPGSA,A,3,06,17,11,19,14,22,03,24,12,,,,1.88,1.03,1.57*09
$GPGSV,3,1,11,03,06,134,30,06,57,055,28,11,31,004,32,12,40,239,27*78
$GPGSV,3,2,11,14,13,073,35,17,33,125,40,19,62,133,48,22,33,082,31*70
$GPGSV,3,3,11,24,55,272,37,25,03,245,25,32,03,210,41*48
$GPGLL,4235.61373,S,14814.46875,E,215938.00,A,A*70
$GPZDA,215938.00,11,11,2024,00,00*66
$GPRMC,215939.00,A,4235.61368,S,14814.46882,E,0.312,76.94,111124,,,A*4E
$GPVTG,76.94,T,,M,0.312,N,0.578,K,A*0B
$GPGGA,215939.00,4235.61368,S,14814.46882,E,1,09,1.03,-4.3,M,-7.7,M,,*7A
$GPGSA,A,3,06,17,11,19,14,22,03,24,12,,,,1.88,1.03,1.57*09
$GPGSV,3,1,11,03,06,134,40,06,57,055,39,11,31,004,31,12,40,239,32*78
$GPGSV,3,2,11,14,13,073,40,17,33,125,44,19,62,133,43,22,33,082,41*7A
$GPGSV,3,3,11,24,55,272,35,25,03,245,25,32,03,210,42*49
$GPGLL,4235.61368,S,14814.46882,E,215939.00,A,A*73
$GPZDA,215939.00,11,11,2024,00,00*67
$GPRMC,215940.00,A,4235.61358,S,14814.46886,E,0.309,76.27,111124,,,A*45
$GPVTG,76.27,T,,M,0.309,N,0.573,K,A*02
$GPGGA,215940.00,4235.61358,S,14814.46886,E,1,09,1.03,-4.2,M,-7.7,M,,*72
$GPGSA,A,3,06,17,11,19,14,22,03,24,12,,,,1.88,1.03,1.57*09
$GPGSV,3,1,11,03,06,134,42,06,57,056,38,11,31,004,31,12,40,239,32*78
$GPGSV,3,2,11,14,13,073,38,17,33,125,44,19,62,133,40,22,33,082,37*77
$GPGSV,3,3,11,24,55,272,37,25,03,245,30,32,03,210,36*4C
$GPGLL,4235.61358,S,14814.46886,E,215940.00,A,A*7A
$GPZDA,215940.00,11,11,2024,00,00*69
$GPRMC,215941.00,A,4235.61350,S,14814.46892,E,0.309,75.68,111124,,,A*41
$GPVTG,75.68,T,,M,0.309,N,0.571,K,A*08
$GPGGA,215941.00,4235.61350,S,14814.46892,E,1,09,1.03,-4.3,M,-7.7,M,,*7F
$GPGSA,A,3,06,17,11,19,14,22,03,24,12,,,,1.88,1.03,1.57*09
$GPGSV,3,1,11,03,06,134,45,06,57,056,36,11,31,004,31,12,40,239,35*76
$GPGSV,3,2,11,14,13,073,41,17,33,125,34,19,62,133,45,22,33,082,38*74
$GPGSV,3,3,11,24,55,272,40,25,03,245,30,32,03,210,36*4C
$GPGLL,4235.61350,S,14814.46892,E,215941.00,A,A*76
$GPZDA,215941.00,11,11,2024,00,00*68
$GPRMC,215942.00,A,4235.61348,S,14814.46903,E,0.309,75.44,111124,,,A*4C
$GPVTG,75.44,T,,M,0.309,N,0.572,K,A*05
$GPGGA,215942.00,4235.61348,S,14814.46903,E,1,09,1.03,-4.3,M,-7.7,M,,*7C
$GPGSA,A,3,06,17,11,19,14,22,03,24,12,,,,1.88,1.03,1.57*09
$GPGSV,3,1,11,03,06,134,37,06,57,056,40,11,31,004,25,12,40,239,35*77
$GPGSV,3,2,11,14,13,073,40,17,33,125,43,19,62,133,38,22,33,082,42*72
$GPGSV,3,3,11,24,55,272,39,25,03,245,30,32,03,210,37*43
$GPGLL,4235.61348,S,14814.46903,E,215942.00,A,A*75
$GPZDA,215942.00,11,11,2024,00,00*6B
$GPRMC,215943.00,A,4235.61342,S,14814.46912,E,0.309,75.07,111124,,,A*40
$GPVTG,75.07,T,,M,0.309,N,0.572,K,A*02
$GPGGA,215943.00,4235.61342,S,14814.46912,E,1,09,1.03,-4.3,M,-7.7,M,,*77
$GPGSA,A,3,06,17,11,19,14,22,03,24,12,,,,1.88,1.03,1.57*09
$GPGSV,3,1,11,03,06,134,39,06,57,056,33,11,31,004,31,12,40,239,37*7A
$GPGSV,3,2,11,14,13,073,37,17,33,125,42,19,62,133,48,22,33,082,35*74
$GPGSV,3,3,11,24,55,272,36,25,03,245,30,32,03,210,41*4D
$GPGLL,4235.61342,S,14814.46912,E,215943.00,A,A*7E
$GPZDA,215943.00,11,11,2024,00,00*6A
$GPRMC,215944.00,A,4235.61341,S,14814.46926,E,0.310,75.11,111124,,,A*4C
$GPVTG,75.11,T,,M,0.310,N,0.575,K,A*0A
$GPGGA,215944.00,4235.61341,S,14814.46926,E,1,09,1.03,-4.4,M,-7.7,M,,*73
$GPGSA,A,3,06,17,11,19,14,22,03,24,12,,,,1.88,1.03,1.57*09
$GPGSV,3,1,11,03,06,134,43,06,57,056,33,11,31,004,26,12,40,239,41*70
$GPGSV,3,2,11,14,13,073,34,17,33,125,29,19,62,133,43,22,33,082,34*70
$GPGSV,3,3,11,24,55,272,40,25,03,245,30,32,03,210,44*49
$GPGLL,4235.61341,S,14814.46926,E,215944.00,A,A*7D
$GPZDA,215944.00,11,11,2024,00,00*6D
$GPRMC,215945.00,A,4235.61342,S,14814.46933,E,0.309,75.26,111124,,,A*46
$GPVTG,75.26,T,,M,0.309,N,0.572,K,A*01
$GPGGA,215945.00,4235.61342,S,14814.46933,E,1,09,1.03,-4.4,M,-7.7,M,,*75
$GPGSA,A,3,06,17,11,19,14,22,03,24,12,,,,1.88,1.03,1.57*09
$GPGSV,3,1,11,03,06,134,43,06,57,056,31,11,32,004,27,12,40,239,39*7F
$GPGSV,3,2,11,14,13,073,40,17,33,125,43,19,62,133,42,22,33,082,37*7D
$GPGSV,3,3,11,24,55,272,36,25,03,245,23,32,03,210,44*4A
$GPGLL,4235.61342,S,14814.46933,E,215945.00,A,A*7B
$GPZDA,215945.00,11,11,2024,00,00*6C
$GPRMC,215946.00,A,4235.61339,S,14814.46942,E,0.308,75.30,111124,,,A*49
$GPVTG,75.30,T,,M,0.308,N,0.571,K,A*04
$GPGGA,215946.00,4235.61339,S,14814.46942,E,1,09,1.03,-4.4,M,-7.7,M,,*7C
$GPGSA,A,3,06,17,11,19,14,22,03,24,12,,,,1.88,1.03,1.57*09
$GPGSV,3,1,11,03,06,134,34,06,57,056,33,11,32,004,27,12,41,238,30*74
$GPGSV,3,2,11,14,13,073,32,17,33,125,39,19,62,133,48,22,33,082,33*7B
$GPGSV,3,3,11,24,55,272,34,25,03,245,30,32,03,210,40*4E
$GPGLL,4235.61339,S,14814.46942,E,215946.00,A,A*72
$GPZDA,215946.00,11,11,2024,00,00*6F
$GPRMC,215947.00,A,4235.61342,S,14814.46950,E,0.307,75.53,111124,,,A*4D
$GPVTG,75.53,T,,M,0.307,N,0.568,K,A*06
$GPGGA,215947.00,4235.61342,S,14814.46950,E,1,09,1.03,-4.5,M,-7.7,M,,*73
$GPGSA,A,3,06,17,11,19,14,22,03,24,12,,,,1.88,1.03,1.57*09
$GPGSV,3,1,11,03,06,134,31,06,57,056,36,11,32,004,26,12,41,238,39*7C
$GPGSV,3,2,11,14,13,073,37,17,33,125,35,19,62,133,42,22,33,082,36*7D
$GPGSV,3,3,11,24,55,272,35,25,03,245,22,32,03,210,38*43
$GPGLL,4235.61342,S,14814.46950,E,215947.00,A,A*7C
$GPZDA,215947.00,11,11,2024,00,00*6E
$GPRMC,215948.00,A,4235.61340,S,14814.46958,E,0.305,75.62,111124,,,A*48
$GPVTG,75.62,T,,M,0.305,N,0.565,K,A*0B
$GPGGA,215948.00,4235.61340,S,14814.46958,E,1,09,1.03,-4.4,M,-7.7,M,,*77
$GPGSA,A,3,06,17,11,19,14,22,03,24,12,,,,1.88,1.03,1.57*09
$GPGSV,3,1,11,03,06,134,41,06,57,056,33,11,32,004,24,12,41,238,37*72
$GPGSV,3,2,11,14,13,073,30,17,33,125,43,19,62,133,46,22,33,082,29*71
$GPGSV,3,3,11,24,55,272,26,25,03,245,28,32,03,210,40*44
$GPGLL,4235.61340,S,14814.46958,E,215948.00,A,A*79
$GPZDA,215948.00,11,11,2024,00,00*61
$GPRMC,215949.00,A,4235.61339,S,14814.46963,E,0.302,75.66,111124,,,A*4C
$GPVTG,75.66,T,,M,0.302,N,0.560,K,A*0D
$GPGGA,215949.00,4235.61339,S,14814.46963,E,1,09,1.03,-4.3,M,-7.7,M,,*77
$GPGSA,A,3,06,17,11,19,14,22,03,24,12,,,,1.88,1.03,1.57*09
$GPGSV,3,1,11,03,06,134,35,06,57,056,33,11,32,004,31,12,41,238,31*73
$GPGSV,3,2,11,14,13,073,36,17,33,125,39,19,62,133,43,22,33,082,39*7E
$GPGSV,3,3,11,24,55,272,39,25,03,245,28,32,03,210,36*4B
$GPGLL,4235.61339,S,14814.46963,E,215949.00,A,A*7E
$GPZDA,215949.00,11,11,2024,00,00*60
$GPRMC,215950.00,A,4235.61338,S,14814.46972,E,0.302,75.71,111124,,,A*43
$GPVTG,75.71,T,,M,0.302,N,0.559,K,A*01
$GPGGA,215950.00,4235.61338,S,14814.46972,E,1,09,1.03,-4.3,M,-7.7,M,,*7E
$GPGSA,A,3,06,17,11,19,14,22,03,24,12,,,,1.88,1.03,1.57*09
$GPGSV,3,1,11,03,06,134,36,06,57,056,36,11,32,004,30,12,41,238,35*70
$GPGSV,3,2,11,14,13,073,41,17,33,125,38,19,62,133,40,22,33,082,41*73
$GPGSV,3,3,11,24,55,272,37,25,03,245,29,32,03,210,35*47
$GPGLL,4235.61338,S,14814.46972,E,215950.00,A,A*77
$GPZDA,215950.00,11,11,2024,00,00*68
$GPRMC,215951.00,A,4235.61334,S,14814.46984,E,0.303,75.65,111124,,,A*43
$GPVTG,75.65,T,,M,0.303,N,0.561,K,A*0E
$GPGGA,215951.00,4235.61334,S,14814.46984,E,1,09,1.03,-4.3,M,-7.7,M,,*7A
$GPGSA,A,3,06,17,11,19,14,22,03,24,12,,,,1.88,1.03,1.57*09
$GPGSV,3,1,11,03,06,134,35,06,57,056,34,11,32,004,29,12,41,238,43*78
$GPGSV,3,2,11,14,13,073,36,17,33,125,33,19,62,133,45,22,33,082,36*7D
$GPGSV,3,3,11,24,55,272,39,25,03,245,33,32,03,210,42*42
$GPGLL,4235.61334,S,14814.46984,E,215951.00,A,A*73
$GPZDA,215951.00,11,11,2024,00,00*69
$GPRMC,215952.00,A,4235.61336,S,14814.46989,E,0.300,75.76,111124,,,A*4E
$GPVTG,75.76,T,,M,0.300,N,0.556,K,A*0B
$GPGGA,215952.00,4235.61336,S,14814.46989,E,1,09,1.03,-4.1,M,-7.7,M,,*74
$GPGSA,A,3,06,17,11,19,14,22,03,24,12,,,,1.88,1.03,1.57*09
$GPGSV,3,1,11,03,06,134,32,06,57,056,31,11,32,004,36,12,41,238,36*76
$GPGSV,3,2,11,14,13,073,36,17,33,125,36,19,62,133,47,22,33,082,36*7A
$GPGSV,3,3,11,24,55,272,35,25,03,245,28,32,03,210,43*45
$GPGLL,4235.61336,S,14814.46989,E,215952.00,A,A*7F
$GPZDA,215952.00,11,11,2024,00,00*6A
$GPRMC,215953.00,A,4235.61334,S,14814.46990,E,0.296,75.72,111124,,,A*4F
$GPVTG,75.72,T,,M,0.296,N,0.548,K,A*0E
$GPGGA,215953.00,4235.61334,S,14814.46990,E,1,09,1.03,-4.0,M,-7.7,M,,*7E
$GPGSA,A,3,06,17,11,19,14,22,03,24,12,,,,1.88,1.03,1.57*09
$GPGSV,3,1,11,03,06,134,31,06,57,056,36,11,32,004,27,12,41,238,34*70
$GPGSV,3,2,11,14,13,073,35,17,33,125,28,19,62,133,47,22,33,082,34*74
$GPGSV,3,3,11,24,55,272,37,25,03,245,32,32,03,210,42*4D
$GPGLL,4235.61334,S,14814.46990,E,215953.00,A,A*74
$GPZDA,215953.00,11,11,2024,00,00*6B
RNG: TX = 11.0 RX = 12.0 time = 00.130 Sec.
$GPRMC,215954.00,A,4235.61334,S,14814.46997,E,0.294,75.73,111124,,,A*4C
$GPVTG,75.73,T,,M,0.294,N,0.545,K,A*00
$GPGGA,215954.00,4235.61334,S,14814.46997,E,1,09,1.03,-4.1,M,-7.7,M,,*7F
$GPGSA,A,3,06,17,11,19,14,22,03,24,12,,,,1.88,1.03,1.57*09
$GPGSV,3,1,11,03,06,134,35,06,57,056,36,11,32,004,32,12,41,238,35*71
$GPGSV,3,2,11,14,13,073,39,17,33,125,44,19,62,133,38,22,33,082,43*7A
$GPGSV,3,3,11,24,55,272,35,25,03,245,26,32,03,210,44*4C
$GPGLL,4235.61334,S,14814.46997,E,215954.00,A,A*74
$GPZDA,215954.00,11,11,2024,00,00*6C
$GPRMC,215955.00,A,4235.61331,S,14814.47011,E,0.297,75.71,111124,,,A*4F
$GPVTG,75.71,T,,M,0.297,N,0.549,K,A*0D
$GPGGA,215955.00,4235.61331,S,14814.47011,E,1,08,1.08,-4.2,M,-7.7,M,,*74
$GPGSA,A,3,17,11,19,14,22,03,24,12,,,,,2.10,1.08,1.80*0C
$GPGSV,3,1,11,03,06,134,41,06,57,056,,11,32,004,32,12,41,238,42*77
$GPGSV,3,2,11,14,13,073,37,17,33,125,45,19,62,133,43,22,33,082,41*7B
$GPGSV,3,3,11,24,55,272,37,25,03,245,32,32,03,210,36*4E
$GPGLL,4235.61331,S,14814.47011,E,215955.00,A,A*76
$GPZDA,215955.00,11,11,2024,00,00*6D
$GPRMC,215956.00,A,4235.61328,S,14814.47017,E,0.295,75.66,111124,,,A*46
$GPVTG,75.66,T,,M,0.295,N,0.547,K,A*07
$GPGGA,215956.00,4235.61328,S,14814.47017,E,1,09,1.08,-4.2,M,-7.7,M,,*78
$GPGSA,A,3,06,17,11,19,14,22,03,24,12,,,,2.10,1.08,1.80*0A
$GPGSV,3,1,11,03,06,134,28,06,57,056,26,11,32,004,32,12,41,238,35*7C
$GPGSV,3,2,11,14,13,073,37,17,33,125,33,19,62,133,49,22,33,082,30*76
$GPGSV,3,3,11,24,55,272,39,25,03,245,32,32,03,210,37*41
$GPGLL,4235.61328,S,14814.47017,E,215956.00,A,A*7B
$GPZDA,215956.00,11,11,2024,00,00*6E
$GPRMC,215957.00,A,4235.61330,S,14814.47029,E,0.295,75.84,111124,,,A*4F
$GPVTG,75.84,T,,M,0.295,N,0.547,K,A*0B
$GPGGA,215957.00,4235.61330,S,14814.47029,E,1,09,1.03,-4.1,M,-7.7,M,,*75
$GPGSA,A,3,06,17,11,19,14,22,03,24,12,,,,1.88,1.03,1.57*09
$GPGSV,3,1,11,03,06,134,36,06,57,056,35,11,32,004,27,12,41,238,39*79
$GPGSV,3,2,11,14,13,073,39,17,33,125,41,19,62,133,42,22,33,082,42*73
$GPGSV,3,3,11,24,55,272,34,25,03,245,35,32,03,210,40*4B
$GPGLL,4235.61330,S,14814.47029,E,215957.00,A,A*7E
$GPZDA,215957.00,11,11,2024,00,00*6F
$GPRMC,215958.00,A,4235.61331,S,14814.47032,E,0.292,76.05,111124,,,A*46
$GPVTG,76.05,T,,M,0.292,N,0.540,K,A*01
$GPGGA,215958.00,4235.61331,S,14814.47032,E,1,09,1.03,-3.9,M,-7.7,M,,*7E
$GPGSA,A,3,06,17,11,19,14,22,03,24,12,,,,1.88,1.03,1.57*09
$GPGSV,3,1,11,03,06,134,37,06,57,056,37,11,32,004,31,12,41,238,32*76
$GPGSV,3,2,11,14,13,073,35,17,33,125,42,19,62,133,47,22,33,082,37*7B
$GPGSV,3,3,11,24,55,273,35,25,03,245,31,32,03,210,41*4E
$GPGLL,4235.61331,S,14814.47032,E,215958.00,A,A*7A
$GPZDA,215958.00,11,11,2024,00,00*60
$GPRMC,215959.00,A,4235.61329,S,14814.47039,E,0.290,76.12,111124,,,A*41
$GPVTG,76.12,T,,M,0.290,N,0.537,K,A*05
$GPGGA,215959.00,4235.61329,S,14814.47039,E,1,09,1.03,-3.9,M,-7.7,M,,*7D
$GPGSA,A,3,06,17,11,19,14,22,03,24,12,,,,1.88,1.03,1.57*09
$GPGSV,3,1,11,03,06,134,28,06,57,056,36,11,32,004,27,12,41,238,32*7E
$GPGSV,3,2,11,14,13,073,33,17,33,125,34,19,62,133,44,22,33,082,28*71
$GPGSV,3,3,11,24,55,273,40,25,03,245,31,32,03,210,38*42
$GPGLL,4235.61329,S,14814.47039,E,215959.00,A,A*79
$GPZDA,215959.00,11,11,2024,00,00*61
$GPRMC,220000.00,A,4235.61331,S,14814.47045,E,0.289,76.29,111124,,,A*40
$GPVTG,76.29,T,,M,0.289,N,0.535,K,A*07
$GPGGA,220000.00,4235.61331,S,14814.47045,E,1,09,1.03,-4.0,M,-7.7,M,,*72
$GPGSA,A,3,06,17,11,19,14,22,03,24,12,,,,1.88,1.03,1.57*09
$GPGSV,3,1,11,03,06,134,38,06,57,056,38,11,32,004,32,12,41,238,42*72
$GPGSV,3,2,11,14,13,073,35,17,33,125,43,19,62,133,44,22,33,082,42*7B
$GPGSV,3,3,11,24,55,273,42,25,03,245,32,32,03,211,35*4F
$GPGLL,4235.61331,S,14814.47045,E,220000.00,A,A*78
$GPZDA,220000.00,11,11,2024,00,00*62
$GPRMC,220001.00,A,4235.61327,S,14814.47053,E,0.288,76.28,111124,,,A*41
$GPVTG,76.28,T,,M,0.288,N,0.534,K,A*06
$GPGGA,220001.00,4235.61327,S,14814.47053,E,1,09,1.03,-3.9,M,-7.7,M,,*7D
$GPGSA,A,3,06,17,11,19,14,22,03,24,12,,,,1.88,1.03,1.57*09
$GPGSV,3,1,11,03,06,134,36,06,57,056,33,11,32,004,32,12,41,238,36*74
$GPGSV,3,2,11,14,13,073,32,17,33,125,38,19,62,133,48,22,33,082,32*7B
$GPGSV,3,3,11,24,55,273,37,25,03,245,35,32,03,211,40*48
$GPGLL,4235.61327,S,14814.47053,E,220001.00,A,A*79
$GPZDA,220001.00,11,11,2024,00,00*63
$GPRMC,220002.00,A,4235.61326,S,14814.47063,E,0.288,76.29,111124,,,A*41
$GPVTG,76.29,T,,M,0.288,N,0.534,K,A*07
$GPGGA,220002.00,4235.61326,S,14814.47063,E,1,09,1.03,-3.9,M,-7.7,M,,*7C
$GPGSA,A,3,06,17,11,19,14,22,03,24,12,,,,1.88,1.03,1.57*09
$GPGSV,3,1,11,03,06,134,39,06,57,056,32,11,32,004,32,12,41,238,37*7B
$GPGSV,3,2,11,14,13,073,39,17,33,125,35,19,62,133,45,22,33,082,32*70
$GPGSV,3,3,11,24,55,273,34,25,03,245,30,32,03,211,39*40
$GPGLL,4235.61326,S,14814.47063,E,220002.00,A,A*78
$GPZDA,220002.00,11,11,2024,00,00*60
$GPRMC,220003.00,A,4235.61326,S,14814.47070,E,0.287,76.40,111124,,,A*42
$GPVTG,76.40,T,,M,0.287,N,0.531,K,A*02
$GPGGA,220003.00,4235.61326,S,14814.47070,E,1,09,1.03,-3.9,M,-7.7,M,,*7F
$GPGSA,A,3,06,17,11,19,14,22,03,24,12,,,,1.88,1.03,1.57*09
$GPGSV,3,1,11,03,06,134,35,06,57,056,37,11,32,004,31,12,41,238,43*72
$GPGSV,3,2,11,14,13,073,39,17,33,125,45,19,62,133,46,22,33,082,35*73
$GPGSV,3,3,11,24,55,273,43,25,03,245,29,32,03,211,37*46
$GPGLL,4235.61326,S,14814.47070,E,220003.00,A,A*7B
$GPZDA,220003.00,11,11,2024,00,00*61
$GPRMC,220004.00,A,4235.61330,S,14814.47072,E,0.283,76.69,111124,,,A*4F
$GPVTG,76.69,T,,M,0.283,N,0.524,K,A*09
$GPGGA,220004.00,4235.61330,S,14814.47072,E,1,09,1.03,-3.8,M,-7.7,M,,*7C
$GPGSA,A,3,06,17,11,19,14,22,03,24,12,,,,1.88,1.03,1.57*09
$GPGSV,3,1,11,03,06,134,29,06,57,056,41,11,32,004,31,12,41,238,38*72
$GPGSV,3,2,11,14,13,073,40,17,33,125,41,19,62,133,43,22,33,082,36*7F
$GPGSV,3,3,11,24,55,273,40,25,03,245,30,32,03,211,38*42
$GPGLL,4235.61330,S,14814.47072,E,220004.00,A,A*79
$GPZDA,220004.00,11,11,2024,00,00*66
$GPRMC,220005.00,A,4235.61328,S,14814.47077,E,0.281,76.71,111124,,,A*49
$GPVTG,76.71,T,,M,0.281,N,0.521,K,A*07
$GPGGA,220005.00,4235.61328,S,14814.47077,E,1,09,1.03,-3.8,M,-7.7,M,,*71
$GPGSA,A,3,06,17,11,19,14,22,03,24,12,,,,1.88,1.03,1.57*09
$GPGSV,3,1,11,03,06,134,41,06,57,056,42,11,32,004,27,12,41,238,38*78
$GPGSV,3,2,11,14,13,073,29,17,33,125,36,19,62,133,45,22,33,082,25*74
$GPGSV,3,3,11,24,55,273,37,25,03,245,31,32,03,211,33*48
$GPGLL,4235.61328,S,14814.47077,E,220005.00,A,A*74
$GPZDA,220005.00,11,11,2024,00,00*67
$GPRMC,220006.00,A,4235.61331,S,14814.47083,E,0.280,76.86,111124,,,A*40
$GPVTG,76.86,T,,M,0.280,N,0.518,K,A*04
$GPGGA,220006.00,4235.61331,S,14814.47083,E,1,09,1.03,-3.8,M,-7.7,M,,*71
$GPGSA,A,3,06,17,11,19,14,22,03,24,12,,,,1.88,1.03,1.57*09
$GPGSV,3,1,11,03,06,134,37,06,57,056,41,11,32,004,32,12,41,238,36*70
$GPGSV,3,2,11,14,13,073,36,17,33,125,38,19,62,133,44,22,33,082,41*77
$GPGSV,3,3,11,24,55,273,39,25,03,245,34,32,03,211,39*49
$GPGLL,4235.61331,S,14814.47083,E,220006.00,A,A*74
$GPZDA,220006.00,11,11,2024,00,00*64
$GPRMC,220007.00,A,4235.61327,S,14814.47090,E,0.279,76.80,111124,,,A*44
$GPVTG,76.80,T,,M,0.279,N,0.517,K,A*0B
$GPGGA,220007.00,4235.61327,S,14814.47090,E,1,09,1.03,-3.8,M,-7.7,M,,*75
$GPGSA,A,3,06,17,11,19,14,22,03,24,12,,,,1.88,1.03,1.58*06
$GPGSV,3,1,11,03,06,134,39,06,57,056,40,11,32,004,27,12,41,238,36*7B
$GPGSV,3,2,11,14,13,073,35,17,33,125,38,19,62,133,43,22,33,082,41*73
$GPGSV,3,3,11,24,55,273,40,25,03,245,31,32,03,211,37*4C
$GPGLL,4235.61327,S,14814.47090,E,220007.00,A,A*70
$GPZDA,220007.00,11,11,2024,00,00*65
$GPRMC,220008.00,A,4235.61323,S,14814.47097,E,0.279,76.57,111124,,,A*42
$GPVTG,76.57,T,,M,0.279,N,0.516,K,A*00
$GPGGA,220008.00,4235.61323,S,14814.47097,E,1,09,1.03,-3.7,M,-7.7,M,,*76
$GPGSA,A,3,06,17,11,19,14,22,03,24,12,,,,1.88,1.03,1.58*06
$GPGSV,3,1,11,03,06,134,40,06,57,056,25,11,32,004,27,12,41,238,38*78
$GPGSV,3,2,11,14,13,073,38,17,33,125,36,19,62,133,50,22,33,082,27*72
$GPGSV,3,3,11,24,55,273,38,25,03,245,34,32,03,211,40*46
$GPGLL,4235.61323,S,14814.47097,E,220008.00,A,A*7C
$GPZDA,220008.00,11,11,2024,00,00*6A
$GPRMC,220009.00,A,4235.61325,S,14814.47100,E,0.276,76.53,111124,,,A*41
$GPVTG,76.53,T,,M,0.276,N,0.512,K,A*0F
$GPGGA,220009.00,4235.61325,S,14814.47100,E,1,09,1.03,-3.8,M,-7.7,M,,*71
$GPGSA,A,3,06,17,11,19,14,22,03,24,12,,,,1.88,1.03,1.58*06
$GPGSV,3,1,11,03,06,134,34,06,57,056,39,11,32,004,32,12,41,238,42*7F
$GPGSV,3,2,11,14,13,073,33,17,33,125,27,19,62,133,46,22,33,082,32*7A
$GPGSV,3,3,11,24,55,273,41,25,03,245,30,32,03,211,44*48
$GPGLL,4235.61325,S,14814.47100,E,220009.00,A,A*74
$GPZDA,220009.00,11,11,2024,00,00*6B
$GPRMC,220010.00,A,4235.61325,S,14814.47106,E,0.275,76.58,111124,,,A*47
$GPVTG,76.58,T,,M,0.275,N,0.509,K,A*0D
$GPGGA,220010.00,4235.61325,S,14814.47106,E,1,09,1.03,-3.8,M,-7.7,M,,*7F
$GPGSA,A,3,06,17,11,19,14,22,03,24,12,,,,1.88,1.03,1.58*06
$GPGSV,3,1,11,03,06,134,35,06,57,056,37,11,32,004,32,12,41,238,37*72
$GPGSV,3,2,11,14,13,073,42,17,33,125,43,19,62,133,40,22,33,082,45*78
$GPGSV,3,3,11,24,55,273,40,25,03,245,31,32,03,211,43*4F
$GPGLL,4235.61325,S,14814.47106,E,220010.00,A,A*7A
$GPZDA,220010.00,11,11,2024,00,00*63
$GPRMC,220011.00,A,4235.61323,S,14814.47114,E,0.275,76.60,111124,,,A*48
$GPVTG,76.60,T,,M,0.275,N,0.509,K,A*06
$GPGGA,220011.00,4235.61323,S,14814.47114,E,1,09,1.03,-3.9,M,-7.7,M,,*7A
$GPGSA,A,3,06,17,11,19,14,22,03,24,12,,,,1.88,1.03,1.58*06
$GPGSV,3,1,11,03,06,134,38,06,57,056,31,11,32,004,33,12,41,238,42*7A
$GPGSV,3,2,11,14,13,073,39,17,33,125,36,19,62,133,45,22,33,082,37*76
$GPGSV,3,3,11,24,55,273,42,25,03,245,29,32,03,211,35*45
$GPGLL,4235.61323,S,14814.47114,E,220011.00,A,A*7E
$GPZDA,220011.00,11,11,2024,00,00*62
$GPRMC,220012.00,A,4235.61325,S,14814.47124,E,0.275,76.80,111124,,,A*40
$GPVTG,76.80,T,,M,0.275,N,0.510,K,A*00
$GPGGA,220012.00,4235.61325,S,14814.47124,E,1,09,1.03,-4.0,M,-7.7,M,,*72
$GPGSA,A,3,06,17,11,19,14,22,03,24,12,,,,1.88,1.03,1.58*06
$GPGSV,3,1,11,03,06,134,36,06,57,056,35,11,32,004,28,12,41,238,41*79
$GPGSV,3,2,11,14,13,073,34,17,33,125,32,19,62,133,45,22,33,082,32*7A
$GPGSV,3,3,11,24,55,273,39,25,03,245,36,32,03,211,35*47
$GPGLL,4235.61325,S,14814.47124,E,220012.00,A,A*78
$GPZDA,220012.00,11,11,2024,00,00*61
$GPRMC,220013.00,A,4235.61328,S,14814.47127,E,0.272,77.06,111124,,,A*47
$GPVTG,77.06,T,,M,0.272,N,0.504,K,A*0D
$GPGGA,220013.00,4235.61328,S,14814.47127,E,1,09,1.03,-4.0,M,-7.7,M,,*7D
$GPGSA,A,3,06,17,11,19,14,22,03,24,12,,,,1.88,1.03,1.58*06
$GPGSV,3,1,11,03,06,134,38,06,57,056,31,11,32,004,32,12,41,238,45*7C
$GPGSV,3,2,11,14,13,073,38,17,33,125,38,19,62,133,47,22,33,082,32*7E
$GPGSV,3,3,11,24,55,273,44,25,03,245,36,32,03,211,40*4F
$GPGLL,4235.61328,S,14814.47127,E,220013.00,A,A*77
$GPZDA,220013.00,11,11,2024,00,00*60
RNG: TX = 11.0 RX = 12.0 time = 00.127 Sec.
$GPRMC,220014.00,A,4235.61331,S,14814.47130,E,0.269,77.32,111124,,,A*43
$GPVTG,77.32,T,,M,0.269,N,0.499,K,A*05
$GPGGA,220014.00,4235.61331,S,14814.47130,E,1,09,1.03,-3.8,M,-7.7,M,,*7B
$GPGSA,A,3,06,17,11,19,14,22,03,24,12,,,,1.88,1.03,1.58*06
$GPGSV,3,1,11,03,06,134,33,06,57,056,35,11,32,004,33,12,41,238,37*77
$GPGSV,3,2,11,14,13,073,40,17,33,125,39,19,62,133,45,22,33,082,38*78
$GPGSV,3,3,11,24,55,273,38,25,03,245,32,32,03,211,36*41
$GPGLL,4235.61331,S,14814.47130,E,220014.00,A,A*7E
$GPZDA,220014.00,11,11,2024,00,00*67
$GPRMC,220015.00,A,4235.61337,S,14814.47135,E,0.267,77.80,111124,,,A*46
$GPVTG,77.80,T,,M,0.267,N,0.495,K,A*0E
$GPGGA,220015.00,4235.61337,S,14814.47135,E,1,09,1.03,-3.9,M,-7.7,M,,*78
$GPGSA,A,3,06,17,11,19,14,22,03,24,12,,,,1.88,1.03,1.58*06
$GPGSV,3,1,11,03,06,134,41,06,57,056,37,11,32,004,19,12,41,238,38*77
$GPGSV,3,2,11,14,13,073,39,17,33,125,42,19,62,133,42,22,33,082,45*77
$GPGSV,3,3,11,24,55,273,38,25,03,245,26,32,03,211,41*44
$GPGLL,4235.61337,S,14814.47135,E,220015.00,A,A*7C
$GPZDA,220015.00,11,11,2024,00,00*66
$GPRMC,220016.00,A,4235.61337,S,14814.47142,E,0.266,78.10,111124,,,A*42
$GPVTG,78.10,T,,M,0.266,N,0.493,K,A*0F
$GPGGA,220016.00,4235.61337,S,14814.47142,E,1,09,1.03,-3.8,M,-7.7,M,,*7A
$GPGSA,A,3,06,17,11,19,14,22,03,24,12,,,,1.88,1.03,1.58*06
$GPGSV,3,1,11,03,06,134,35,06,57,056,34,11,32,004,35,12,41,238,36*77
$GPGSV,3,2,11,14,13,073,34,17,33,125,37,19,62,133,48,22,33,082,24*75
$GPGSV,3,3,11,24,55,273,36,25,03,245,37,32,03,211,42*49
$GPGLL,4235.61337,S,14814.47142,E,220016.00,A,A*7F
$GPZDA,220016.00,11,11,2024,00,00*65
$GPRMC,220017.00,A,4235.61339,S,14814.47151,E,0.266,78.35,111124,,,A*48
$GPVTG,78.35,T,,M,0.266,N,0.492,K,A*09
$GPGGA,220017.00,4235.61339,S,14814.47151,E,1,09,1.03,-3.8,M,-7.7,M,,*77
$GPGSA,A,3,06,17,11,19,14,22,03,24,12,,,,1.88,1.03,1.58*06
$GPGSV,3,1,11,03,06,134,33,06,57,056,33,11,32,004,28,12,41,238,38*74
$GPGSV,3,2,11,14,13,073,37,17,33,125,37,19,62,133,45,22,33,082,34*7A
$GPGSV,3,3,11,24,55,273,36,25,03,245,31,32,03,211,39*43
$GPGLL,4235.61339,S,14814.47151,E,220017.00,A,A*72
$GPZDA,220017.00,11,11,2024,00,00*64
$GPRMC,220018.00,A,4235.61337,S,14814.47155,E,0.264,78.42,111124,,,A*4F
$GPVTG,78.42,T,,M,0.264,N,0.489,K,A*01
$GPGGA,220018.00,4235.61337,S,14814.47155,E,1,09,1.03,-3.8,M,-7.7,M,,*72
$GPGSA,A,3,06,17,11,19,14,22,03,24,12,,,,1.88,1.03,1.58*06
$GPGSV,3,1,11,03,06,134,36,06,57,056,38,11,32,004,21,12,41,238,39*72
$GPGSV,3,2,11,14,13,073,37,17,33,125,44,19,62,133,45,22,33,082,42*7F
$GPGSV,3,3,11,24,55,273,41,25,03,245,29,32,03,211,38*4B
$GPGLL,4235.61337,S,14814.47155,E,220018.00,A,A*77
$GPZDA,220018.00,11,11,2024,00,00*6B
$GPRMC,220019.00,A,4235.61335,S,14814.47161,E,0.263,78.37,111124,,,A*4E
$GPVTG,78.37,T,,M,0.263,N,0.488,K,A*05
$GPGGA,220019.00,4235.61335,S,14814.47161,E,1,09,1.03,-3.8,M,-7.7,M,,*76
$GPGSA,A,3,06,17,11,19,14,22,03,24,12,,,,1.88,1.03,1.58*06
$GPGSV,3,1,11,03,06,134,33,06,57,056,36,11,32,004,27,12,41,238,39*7F
$GPGSV,3,2,11,14,13,073,34,17,33,125,41,19,62,133,46,22,33,082,34*7B
$GPGSV,3,3,11,24,55,273,32,25,03,245,30,32,03,211,39*46
$GPGLL,4235.61335,S,14814.47161,E,220019.00,A,A*73
$GPZDA,220019.00,11,11,2024,00,00*6A
$GPRMC,220020.00,A,4235.61335,S,14814.47166,E,0.262,78.35,111124,,,A*40
$GPVTG,78.35,T,,M,0.262,N,0.485,K,A*0B
$GPGGA,220020.00,4235.61335,S,14814.47166,E,1,09,1.03,-3.7,M,-7.7,M,,*74
$GPGSA,A,3,06,17,11,19,14,22,03,24,12,,,,1.88,1.03,1.58*06
$GPGSV,3,1,11,03,06,134,39,06,57,056,33,11,32,004,35,12,41,238,40*7D
$GPGSV,3,2,11,14,13,073,31,17,33,125,40,19,62,133,47,22,33,082,33*79
$GPGSV,3,3,11,24,55,273,36,25,03,245,22,32,03,211,43*4C
$GPGLL,4235.61335,S,14814.47166,E,220020.00,A,A*7E
$GPZDA,220020.00,11,11,2024,00,00*60
$GPRMC,220021.00,A,4235.61330,S,14814.47169,E,0.260,78.09,111124,,,A*46
$GPVTG,78.09,T,,M,0.260,N,0.482,K,A*01
$GPGGA,220021.00,4235.61330,S,14814.47169,E,1,09,1.03,-3.7,M,-7.7,M,,*7F
$GPGSA,A,3,06,17,11,19,14,22,03,24,12,,,,1.88,1.03,1.58*06
$GPGSV,3,1,11,03,06,134,34,06,57,056,40,11,32,004,35,12,41,238,34*77
$GPGSV,3,2,11,14,13,073,35,17,33,125,42,19,62,133,45,22,33,082,38*76
$GPGSV,3,3,11,24,55,273,40,25,03,245,24,32,03,211,44*4C
$GPGLL,4235.61330,S,14814.47169,E,220021.00,A,A*75
$GPZDA,220021.00,11,11,2024,00,00*61
$GPRMC,220022.00,A,4235.61331,S,14814.47175,E,0.259,78.08,111124,,,A*42
$GPVTG,78.08,T,,M,0.259,N,0.480,K,A*08
$GPGGA,220022.00,4235.61331,S,14814.47175,E,1,09,1.03,-3.8,M,-7.7,M,,*7F
$GPGSA,A,3,06,17,11,19,14,22,03,24,12,,,,1.88,1.03,1.58*06
$GPGSV,3,1,11,03,06,134,40,06,57,056,31,11,32,004,26,12,41,238,44*77
$GPGSV,3,2,11,14,13,073,37,17,33,125,43,19,62,133,42,22,33,082,40*7D
$GPGSV,3,3,11,24,55,273,40,25,03,245,25,32,03,211,39*47
$GPGLL,4235.61331,S,14814.47175,E,220022.00,A,A*7A
$GPZDA,220022.00,11,11,2024,00,00*62
$GPRMC,220023.00,A,4235.61329,S,14814.47185,E,0.260,78.08,111124,,,A*4F
$GPVTG,78.08,T,,M,0.260,N,0.481,K,A*03
$GPGGA,220023.00,4235.61329,S,14814.47185,E,1,09,1.03,-3.7,M,-7.7,M,,*77
$GPGSA,A,3,06,17,11,19,14,22,03,24,12,,,,1.88,1.03,1.58*06
$GPGSV,3,1,11,03,06,134,36,06,57,056,37,11,32,004,27,12,41,238,39*7B
$GPGSV,3,2,11,14,13,073,34,17,33,125,37,19,62,133,45,22,33,082,34*79
$GPGSV,3,3,11,24,55,273,39,25,03,245,26,32,03,211,39*4A
$GPGLL,4235.61329,S,14814.47185,E,220023.00,A,A*7D
$GPZDA,220023.00,11,11,2024,00,00*63
$GPRMC,220024.00,A,4235.61331,S,14814.47194,E,0.259,78.22,111124,,,A*43
$GPVTG,78.22,T,,M,0.259,N,0.480,K,A*00
$GPGGA,220024.00,4235.61331,S,14814.47194,E,1,09,1.03,-3.7,M,-7.7,M,,*79
$GPGSA,A,3,06,17,11,19,14,22,03,24,12,,,,1.88,1.03,1.58*06
$GPGSV,3,1,11,03,06,134,43,06,57,056,34,11,32,004,25,12,41,238,42*74
$GPGSV,3,2,11,14,13,073,34,17,33,125,38,19,62,133,49,22,33,082,30*7E
$GPGSV,3,3,11,24,55,273,37,25,03,245,25,32,03,211,38*46
$GPGLL,4235.61331,S,14814.47194,E,220024.00,A,A*73
$GPZDA,220024.00,11,11,2024,00,00*64
$GPRMC,220025.00,A,4235.61330,S,14814.47202,E,0.259,78.33,111124,,,A*4F
$GPVTG,78.33,T,,M,0.259,N,0.479,K,A*06
$GPGGA,220025.00,4235.61330,S,14814.47202,E,1,09,1.03,-3.7,M,-7.7,M,,*75
$GPGSA,A,3,06,17,11,19,14,22,03,24,12,,,,1.88,1.03,1.58*06
$GPGSV,3,1,11,03,06,134,41,06,57,056,40,11,32,004,34,12,41,238,32*72
$GPGSV,3,2,11,14,13,073,37,17,33,125,40,19,62,133,43,22,33,082,39*71
$GPGSV,3,3,11,24,55,273,42,25,03,245,25,32,03,211,39*45
$GPGLL,4235.61330,S,14814.47202,E,220025.00,A,A*7F
$GPZDA,220025.00,11,11,2024,00,00*65
$GPRMC,220026.00,A,4235.61334,S,14814.47214,E,0.259,78.64,111124,,,A*4D
$GPVTG,78.64,T,,M,0.259,N,0.480,K,A*02
$GPGGA,220026.00,4235.61334,S,14814.47214,E,1,09,1.03,-3.8,M,-7.7,M,,*7A
$GPGSA,A,3,06,17,11,19,14,22,03,24,12,,,,1.88,1.03,1.58*06
$GPGSV,3,1,11,03,06,134,39,06,57,056,34,11,32,004,33,12,41,238,42*7E
$GPGSV,3,2,11,14,13,073,39,17,33,125,44,19,62,133,41,22,33,082,34*74
$GPGSV,3,3,11,24,55,273,41,25,03,245,24,32,03,211,35*4B
$GPGLL,4235.61334,S,14814.47214,E,220026.00,A,A*7F
$GPZDA,220026.00,11,11,2024,00,00*66
$GPRMC,220027.00,A,4235.61334,S,14814.47222,E,0.258,78.87,111124,,,A*45
$GPVTG,78.87,T,,M,0.258,N,0.478,K,A*09
$GPGGA,220027.00,4235.61334,S,14814.47222,E,1,09,1.03,-3.7,M,-7.7,M,,*71
$GPGSA,A,3,06,17,11,19,14,22,03,24,12,,,,1.88,1.03,1.58*06
$GPGSV,3,1,11,03,06,134,27,06,57,056,36,11,32,004,27,12,41,238,40*74
$GPGSV,3,2,11,14,13,073,37,17,33,125,40,19,62,133,46,22,33,082,30*7D
$GPGSV,3,3,11,24,55,273,40,25,03,245,30,32,03,211,39*43
$GPGLL,4235.61334,S,14814.47222,E,220027.00,A,A*7B
$GPZDA,220027.00,11,11,2024,00,00*67
$GPRMC,220028.00,A,4235.61343,S,14814.47225,E,0.255,79.31,111124,,,A*4C
$GPVTG,79.31,T,,M,0.255,N,0.473,K,A*03
$GPGGA,220028.00,4235.61343,S,14814.47225,E,1,09,1.03,-3.5,M,-7.7,M,,*7B
$GPGSA,A,3,06,17,11,19,14,22,03,24,12,,,,1.88,1.03,1.58*06
$GPGSV,3,1,11,03,06,134,42,06,57,056,28,11,32,004,38,12,41,238,44*72
$GPGSV,3,2,11,14,13,073,36,17,33,125,35,19,62,133,47,22,33,082,40*78
$GPGSV,3,3,11,24,55,273,40,25,03,245,34,32,03,211,38*46
$GPGLL,4235.61343,S,14814.47225,E,220028.00,A,A*73
$GPZDA,220028.00,11,11,2024,00,00*68
